[
    {
      "id": 1,
      "name":"HOSPITAL MUNICIPAL DR SEVERINO BEZERRA DE CARVALHO",
      "address": "FLORIANO PEIXOTO",
      "district": "CENTENARIO",
      "phone": "(83) 3341 2097",
      "time": ["Segunda-Feira: 07:00 às 17:00",
                "Terça-Feira: 07:00 às 17:00",
                "Quarta-Feira: 07:00 às 17:00",
                "Quinta-Feira: 07:00 às 17:00",
                "Sexta-Feira: 07:00 às 17:00"],
      "lat": -7.221412,
      "lng": -35.888401,
      "city": "CAMPINA GRANDE-IBGE-250400",
      "type": "HOSPITAL ESPECIALIZADO",
      "management": "MUNICIPAL",
      "dependency": "MANTIDA",
      "CNES": 7113692,
      "speciality":["PEDIATRIA", "CLÍNICO GERAL"],
      "CEP": null
    },
    {
      "id": 2,
      "name":"HOSPITAL DA VISAO DE CAMPINA GRANDE",
      "address": "RUA DR SEVERINO RIBEIRO CRUZ",
      "district": "CENTRO",
      "phone": "(83) 3066-0606",
      "time": ["Segunda-Feira: 07:00 às 11:00",
                "Segunda-Feira: 13:00 às 17:00",
                "Terça-Feira: 07:00 às 11:00",
                "Terça-Feira: 13:00 às 17:00",
                "Quarta-Feira: 07:00 às 11:00",
                "Quarta-Feira: 13:00 às 17:00",
                "Quinta-Feira: 07:00 às 11:00",
                "Quinta-Feira: 13:00 às 17:00",
                "Sexta-Feira: 07:00 às 11:00",
                "Sexta-Feira: 13:00 às 17:00"],
      "lat": -7.225295510903965,
      "lng":  -35.88253772417872,
      "city": "CAMPINA GRANDE-IBGE-250400",
      "type": "HOSPITAL ESPECIALIZADO",
      "management": "MUNICIPAL",
      "dependency": "INDIVIDUAL",
      "CNES": 7249071,
      "speciality":[]
    },
    {
      "id": 3,
      "name":"INSTITUTO DE SAUDE ELPIDIO DE ALMEIDA",
      "address": "VILA NOVA DA RAINHA",
      "district": "CENTRO",
      "phone": "(83) 33106356",
      "time": ["Segunda-Feira: 07:00 às 11:00",
                "Segunda-Feira: 13:00 às 17:00",
                "Terça-Feira: 07:00 às 11:00",
                "Terça-Feira: 13:00 às 17:00",
                "Quarta-Feira: 07:00 às 11:00",
                "Quarta-Feira: 13:00 às 17:00",
                "Quinta-Feira: 07:00 às 11:00",
                "Quinta-Feira: 13:00 às 17:00",
                "Sexta-Feira: 07:00 às 11:00",
                "Sexta-Feira: 13:00 às 17:00"],
      "lat": -7.221749007784563, 
      "lng":  -35.87757760372972,
      "city": "CAMPINA GRANDE-IBGE-250400",
      "type": "HOSPITAL ESPECIALIZADO",
      "management": "MUNICIPAL",
      "dependency": "MANTIDA",
      "CNES": 2362287,
      "speciality":["MATERNIDADE"]
    },
    {
      "id": 4,
      "name":"UBS MALVINAS IV",
      "address": "AVENIDA FLORIANO PEIXOTO",
      "district": "ALVARO GAUDENCIO",
      "phone": "(83) 33107042",
      "time": ["Segunda-Feira: 07:00 às 11:00",
                "Segunda-Feira: 13:00 às 17:00",
                "Terça-Feira: 07:00 às 11:00",
                "Terça-Feira: 13:00 às 17:00",
                "Quarta-Feira: 07:00 às 11:00",
                "Quarta-Feira: 13:00 às 17:00",
                "Quinta-Feira: 07:00 às 11:00",
                "Quinta-Feira: 13:00 às 17:00",
                "Sexta-Feira: 07:00 às 11:00",
                "Sexta-Feira: 13:00 às 17:00"],
      "lat": -7.236971484147662, 
      "lng":  -35.92406988838634,
      "city": "CAMPINA GRANDE-IBGE-250400",
      "type": "CENTRO DE SAUDE/UNIDADE BASICA",
      "management": "MUNICIPAL",
      "dependency": "MANTIDA",
      "CNES": 9360093,
      "speciality":[]
    },
    {
      "id": 5,
      "name":"UBS EDUARDO RAMOS",
      "address": "RUA LADISLAU RODRIGUES DE SOUZA",
      "district": "CENTENARIO",
      "phone": "(83)  33107042",
      "time": ["Segunda-Feira: 07:00 às 11:00",
                "Segunda-Feira: 13:00 às 17:00",
                "Terça-Feira: 07:00 às 11:00",
                "Terça-Feira: 13:00 às 17:00",
                "Quarta-Feira: 07:00 às 11:00",
                "Quarta-Feira: 13:00 às 17:00",
                "Quinta-Feira: 07:00 às 11:00",
                "Quinta-Feira: 13:00 às 17:00",
                "Sexta-Feira: 07:00 às 11:00",
                "Sexta-Feira: 13:00 às 17:00"],
      "lat": -7.228544179981358, 
      "lng":  -35.901779674893895,
      "city": "CAMPINA GRANDE-IBGE-250400",
      "type": "CENTRO DE SAUDE/UNIDADE BASICA",
      "management": "MUNICIPAL",
      "dependency": "MANTIDA",
      "CNES": 9352880,
      "speciality":[]
    },
    {
      "id": 6,
      "name":"UBS LIBERDADE III",
      "address": "RUA SAO PAULO",
      "district": "LIBERDADE",
      "phone": "(83) ---",
      "time": ["Segunda-Feira: 07:00 às 11:00",
                "Segunda-Feira: 13:00 às 17:00",
                "Terça-Feira: 07:00 às 11:00",
                "Terça-Feira: 13:00 às 17:00",
                "Quarta-Feira: 07:00 às 11:00",
                "Quarta-Feira: 13:00 às 17:00",
                "Quinta-Feira: 07:00 às 11:00",
                "Quinta-Feira: 13:00 às 17:00",
                "Sexta-Feira: 07:00 às 11:00",
                "Sexta-Feira: 13:00 às 17:00"],
      "lat": -7.229287659323389, 
      "lng":  -35.89065223256546,
      "city": "CAMPINA GRANDE-IBGE-250400",
      "type": "CENTRO DE SAUDE/UNIDADE BASICA",
      "management": "MUNICIPAL",
      "dependency": "MANTIDA",
      "CNES": 9352910,
      "speciality":[]
    },
    {
      "id": 7,
      "name":"POLICLINICA DO CATOLE",
      "address": "RUA EUTENCIA VITAL RIBEIRO",
      "district": "CATOLE",
      "phone": "(83) 33107068",
      "time": ["Segunda-Feira: 07:00 às 11:00",
                "Segunda-Feira: 13:00 às 17:00",
                "Terça-Feira: 07:00 às 11:00",
                "Terça-Feira: 13:00 às 17:00",
                "Quarta-Feira: 07:00 às 11:00",
                "Quarta-Feira: 13:00 às 17:00",
                "Quinta-Feira: 07:00 às 11:00",
                "Quinta-Feira: 13:00 às 17:00",
                "Sexta-Feira: 07:00 às 11:00",
                "Sexta-Feira: 13:00 às 17:00"],
      "lat": -7.2391268686684, 
      "lng":  -35.872612830714615,
      "city": "CAMPINA GRANDE-IBGE-250400",
      "type": "CENTRO DE SAUDE/UNIDADE BASICA",
      "management": "MUNICIPAL",
      "dependency": "MANTIDA",
      "CNES": 2362228,
      "speciality":[]
    },
    {
      "id": 8,
      "name":"CENTRO DE SAUDE DA PALMEIRA",
      "address": "RUA ANA AZEVEDO",
      "district": "PALMEIRA",
      "phone": "(83) 33106342",
      "time": ["Segunda-Feira: 07:00 às 11:00",
                "Segunda-Feira: 13:00 às 17:00",
                "Terça-Feira: 07:00 às 11:00",
                "Terça-Feira: 13:00 às 17:00",
                "Quarta-Feira: 07:00 às 11:00",
                "Quarta-Feira: 13:00 às 17:00",
                "Quinta-Feira: 07:00 às 11:00",
                "Quinta-Feira: 13:00 às 17:00",
                "Sexta-Feira: 07:00 às 11:00",
                "Sexta-Feira: 13:00 às 17:00"],
      "lat": -7.209023926330942, 
      "lng":  -35.895933217222364,
      "city": "CAMPINA GRANDE-IBGE-250400",
      "type": "CENTRO DE SAUDE/UNIDADE BASICA",
      "management": "MUNICIPAL",
      "dependency": "MANTIDA",
      "CNES": 2362236,
      "speciality":[]
    },
    {
      "id": 9,
      "name":"CENTRO DE SAUDE DA BELA VISTA",
      "address": "RUA DOM PEDRO II",
      "district": "BELA VISTA",
      "phone": "(83) 33106347",
      "time": ["Segunda-Feira: 07:00 às 11:00",
                "Segunda-Feira: 13:00 às 17:00",
                "Terça-Feira: 07:00 às 11:00",
                "Terça-Feira: 13:00 às 17:00",
                "Quarta-Feira: 07:00 às 11:00",
                "Quarta-Feira: 13:00 às 17:00",
                "Quinta-Feira: 07:00 às 11:00",
                "Quinta-Feira: 13:00 às 17:00",
                "Sexta-Feira: 07:00 às 11:00",
                "Sexta-Feira: 13:00 às 17:00"],
      "lat": -7.217132837319751, 
      "lng":  -35.901082646058164,
      "city": "CAMPINA GRANDE-IBGE-250400",
      "type": "CENTRO DE SAUDE/UNIDADE BASICA",
      "management": "MUNICIPAL",
      "dependency": "MANTIDA",
      "CNES": 2362198,
      "speciality":[]
    },
    {
      "id": 10,
      "name":"CASA DA CRIANCA DR JOAO MOURA",
      "address": "RUA JOAO MOURA",
      "district": "SAO JOSE",
      "phone": "(83) 3224143",
      "time": ["Segunda-Feira: 07:00 às 11:00",
                "Segunda-Feira: 13:00 às 17:00",
                "Terça-Feira: 07:00 às 11:00",
                "Terça-Feira: 13:00 às 17:00",
                "Quarta-Feira: 07:00 às 11:00",
                "Quarta-Feira: 13:00 às 17:00",
                "Quinta-Feira: 07:00 às 11:00",
                "Quinta-Feira: 13:00 às 17:00",
                "Sexta-Feira: 07:00 às 11:00",
                "Sexta-Feira: 13:00 às 17:00"],
      "lat": -7.225062934620533, 
      "lng":  -35.888633461401405,
      "city": "CAMPINA GRANDE-IBGE-250400",
      "type": "CONSULTORIO ISOLADO",
      "management": "MUNICIPAL",
      "dependency": "MANTIDA",
      "CNES": 2362414,
      "speciality":[]
    },
    {
      "id": 11,
      "name":"HOSPITAL MUNICIPAL PEDRO I",
      "address": "RUA PEDRO I",
      "district": "SAO JOSE",
      "phone": "(83) 33413082",
      "time": ["Segunda-Feira: 07:00 às 11:00",
                "Segunda-Feira: 13:00 às 17:00",
                "Terça-Feira: 07:00 às 11:00",
                "Terça-Feira: 13:00 às 17:00",
                "Quarta-Feira: 07:00 às 11:00",
                "Quarta-Feira: 13:00 às 17:00",
                "Quinta-Feira: 07:00 às 11:00",
                "Quinta-Feira: 13:00 às 17:00",
                "Sexta-Feira: 07:00 às 11:00",
                "Sexta-Feira: 13:00 às 17:00"],
      "lat": -7.228340323444839,  
      "lng":  -35.892993774893895,
      "city": "CAMPINA GRANDE-IBGE-250400",
      "type": "HOSPITAL GERAL",
      "management": "MUNICIPAL",
      "dependency": "MANTIDA",
      "CNES": 2363070,
      "speciality":[]
    }
    
  ]
    